{
  "records": [
    {
      "user": "Safran",
      "type": "Sous-ensemble",
      "system": "Ens. Equipements latéraux",
      "component": "A5086 - Aluminium",
      "raw_materials": [
        "Aluminium"
      ],
      "materials_estimates": [],
      "material_modeling_refs": {},
      "suppliers": {
        "tier1": [
          {
            "name": "ESPACE (France)*",
            "location": "France",
            "is_primary": true,
            "lat": 44.7776436,
            "lon": -0.6475364,
            "geocode_provider": "cache:nominatim",
            "geocode_query": "ESPACE (France)*, France"
          },
          {
            "name": "Figeac Aero",
            "location": "France",
            "is_primary": false,
            "lat": 44.590773,
            "lon": 2.0333182,
            "geocode_provider": "cache:nominatim",
            "geocode_query": "Figeac Aero, France"
          },
          {
            "name": "GATTEFIN",
            "location": "France",
            "is_primary": false,
            "lat": 47.1426393,
            "lon": 2.2372016,
            "geocode_provider": "cache:nominatim",
            "geocode_query": "GATTEFIN, France"
          }
        ],
        "first_transformation": [
          {
            "name": "Euralliage",
            "location": "France",
            "is_primary": true,
            "geocode_query": "EURALLIAGE, 3 rue des Frères Montgolfier, 95500 Gonesse, France",
            "lat": 46.2276,
            "lon": 2.2137,
            "geocode_provider": "country_centroid"
          },
          {
            "name": "Aluminium France",
            "location": "France",
            "is_primary": false,
            "lat": 47.9949854,
            "lon": 3.7585376,
            "geocode_provider": "cache:nominatim",
            "geocode_query": "Aluminium France, France"
          },
          {
            "name": "Thyssen group",
            "location": "France",
            "is_primary": false,
            "geocode_query": "thyssenkrupp Materials France, ZA Pariwest, 6 Avenue Gutenberg, 78310 Maurepas, France",
            "lat": 46.2276,
            "lon": 2.2137,
            "geocode_provider": "country_centroid"
          }
        ],
        "raw_material": [
          {
            "name": "Alcoa",
            "location": "USA",
            "is_primary": true,
            "lat": 35.7847143,
            "lon": -83.986599,
            "geocode_provider": "cache:nominatim",
            "geocode_query": "Alcoa, United States"
          },
          {
            "name": "Constellium (France",
            "location": "France",
            "is_primary": false,
            "lat": 45.3094248,
            "lon": 5.607597,
            "geocode_provider": "cache:nominatim",
            "geocode_query": "Constellium (France, France"
          },
          {
            "name": "Austria metall",
            "location": "Autriche",
            "is_primary": false,
            "lat": 48.2266686,
            "lon": 13.0356549,
            "geocode_provider": "cache:nominatim",
            "geocode_query": "Austria metall, Austria"
          },
          {
            "name": "Hindalco",
            "location": "Inde",
            "is_primary": false,
            "lat": 15.9079826,
            "lon": 74.5365877,
            "geocode_provider": "cache:nominatim",
            "geocode_query": "Hindalco, India"
          },
          {
            "name": "Aluminium Corporation of China",
            "location": "Chine",
            "is_primary": false,
            "lat": 35.8617,
            "lon": 104.1954,
            "geocode_provider": "cache:nominatim",
            "geocode_query": "Aluminium Corporation of China, China"
          },
          {
            "name": "Thyssen group",
            "location": "France",
            "is_primary": false,
            "geocode_query": "thyssenkrupp Materials France, ZA Pariwest, 6 Avenue Gutenberg, 78310 Maurepas, France",
            "lat": 46.2276,
            "lon": 2.2137,
            "geocode_provider": "country_centroid"
          },
          {
            "name": "TATA Steel",
            "location": "Inde",
            "is_primary": false,
            "lat": 22.7853607,
            "lon": 86.1994836,
            "geocode_provider": "cache:nominatim",
            "geocode_query": "TATA Steel, India"
          }
        ],
        "primary_material": []
      },
      "transport": {
        "from_supplier_to_safran": {
          "modes": [
            "Camion"
          ]
        },
        "to_first_transformation": {
          "modes": [
            "Train - Camion - Bateau"
          ]
        },
        "mine_to_refinery": {
          "modes": []
        }
      },
      "market_share_pct": "",
      "mass_kg": 0.0,
      "mass_estimation_method": "no_data_in_source_file"
    },
    {
      "user": "Safran",
      "type": "Sous-ensemble",
      "system": "Ens. Stowage latéral",
      "component": "15CDV6 (chrome, molibdene, vanadium)",
      "raw_materials": [
        "Acier"
      ],
      "materials_estimates": [],
      "material_modeling_refs": {},
      "suppliers": {
        "tier1": [
          {
            "name": "MGA Villeneuve St Lot",
            "location": "France",
            "is_primary": true,
            "geocode_query": "MGA, ZI La Barbière, Rue Nicolas Leblanc, 47300 Villeneuve-sur-Lot, France",
            "lat": 46.2276,
            "lon": 2.2137,
            "geocode_provider": "country_centroid"
          },
          {
            "name": "Lauak Group",
            "location": "France",
            "is_primary": false,
            "geocode_query": "Groupe LAUAK, 2245 Route de Minhotz, 64240 Hasparren, France",
            "country": "France",
            "lat": 46.2276,
            "lon": 2.2137,
            "geocode_provider": "country_centroid"
          },
          {
            "name": "GATTEFIN",
            "location": "France",
            "is_primary": false,
            "lat": 47.1426393,
            "lon": 2.2372016,
            "geocode_provider": "cache:nominatim",
            "geocode_query": "GATTEFIN, France"
          }
        ],
        "first_transformation": [
          {
            "name": "Altec Etirage",
            "location": "France",
            "is_primary": false,
            "geocode_query": "Altec Etirage, Toulouse, France",
            "lat": 46.2276,
            "lon": 2.2137,
            "geocode_provider": "country_centroid"
          },
          {
            "name": "Thyssen group",
            "location": "France",
            "is_primary": false,
            "geocode_query": "thyssenkrupp Materials France, ZA Pariwest, 6 Avenue Gutenberg, 78310 Maurepas, France",
            "lat": 46.2276,
            "lon": 2.2137,
            "geocode_provider": "country_centroid"
          },
          {
            "name": "Aubert&Duval (France)*",
            "location": "France",
            "is_primary": true,
            "lat": 45.9235016,
            "lon": 2.8415731,
            "geocode_provider": "cache:nominatim",
            "geocode_query": "Aubert&Duval (France)*, France"
          }
        ],
        "raw_material": [
          {
            "name": "Saarstahl",
            "location": "Allemagne",
            "is_primary": true,
            "lat": 49.3593951,
            "lon": 7.1714727,
            "geocode_provider": "cache:nominatim",
            "geocode_query": "Saarstahl, Germany"
          },
          {
            "name": "Arcelor Mittal",
            "location": "Luxembourg",
            "is_primary": false,
            "lat": 49.579589,
            "lon": 6.1108861,
            "geocode_provider": "cache:nominatim",
            "geocode_query": "Arcelor Mittal, Luxembourg"
          },
          {
            "name": "Krupp",
            "location": "Allemagne",
            "is_primary": false,
            "lat": 51.3350109,
            "lon": 7.5747349,
            "geocode_provider": "cache:nominatim",
            "geocode_query": "Krupp, Germany"
          },
          {
            "name": "China Baowu",
            "location": "Chine",
            "is_primary": false,
            "lat": 35.8617,
            "lon": 104.1954,
            "geocode_provider": "cache:nominatim",
            "geocode_query": "China Baowu, China"
          },
          {
            "name": "Thyssen group",
            "location": "France",
            "is_primary": false,
            "geocode_query": "thyssenkrupp Materials France, ZA Pariwest, 6 Avenue Gutenberg, 78310 Maurepas, France",
            "lat": 46.2276,
            "lon": 2.2137,
            "geocode_provider": "country_centroid"
          },
          {
            "name": "TATA Steel",
            "location": "Inde",
            "is_primary": false,
            "lat": 22.7853607,
            "lon": 86.1994836,
            "geocode_provider": "cache:nominatim",
            "geocode_query": "TATA Steel, India"
          },
          {
            "name": "Nucor Corp",
            "location": "USA",
            "is_primary": false,
            "lat": 39.7837304,
            "lon": -100.4458825,
            "geocode_provider": "cache:nominatim",
            "geocode_query": "Nucor Corp, United States"
          }
        ],
        "primary_material": []
      },
      "transport": {
        "from_supplier_to_safran": {
          "modes": [
            "Camion"
          ]
        },
        "to_first_transformation": {
          "modes": [
            "Train - Camion - Bateau"
          ]
        },
        "mine_to_refinery": {
          "modes": []
        }
      },
      "market_share_pct": "",
      "mass_kg": 0.0,
      "mass_estimation_method": "no_data_in_source_file"
    },
    {
      "user": "Safran",
      "type": "Sous-ensemble",
      "system": "Ens. Equipements latéraux",
      "component": "Ertalon par moulage par injection plastique",
      "raw_materials": [
        "EU28",
        "Polyamide 6"
      ],
      "materials_estimates": [],
      "material_modeling_refs": {},
      "suppliers": {
        "tier1": [
          {
            "name": "ESPACE (France)*",
            "location": "France",
            "is_primary": true,
            "lat": 44.7776436,
            "lon": -0.6475364,
            "geocode_provider": "cache:nominatim",
            "geocode_query": "ESPACE (France)*, France"
          },
          {
            "name": "BAULE - Exsto Polymère",
            "location": "France",
            "is_primary": false,
            "geocode_query": "EXSTO Thermoplastics, 55 Avenue de la Déportation, 26100 Romans-sur-Isère, France",
            "lat": 46.2276,
            "lon": 2.2137,
            "geocode_provider": "country_centroid"
          },
          {
            "name": "Plastitek",
            "location": "France",
            "is_primary": false,
            "geocode_query": "PLASTITEK, 2 Avenue du Président Roosevelt, 80220 Bouttencourt, France",
            "lat": 46.2276,
            "lon": 2.2137,
            "geocode_provider": "country_centroid"
          }
        ],
        "first_transformation": [
          {
            "name": "Ensinger",
            "location": "Allemagne",
            "is_primary": true,
            "lat": 48.5010122,
            "lon": 8.8201999,
            "geocode_provider": "cache:nominatim",
            "geocode_query": "Ensinger, Germany"
          },
          {
            "name": "BASF",
            "location": "Allemagne",
            "is_primary": false,
            "lat": 49.5528125,
            "lon": 8.3516349,
            "geocode_provider": "cache:nominatim",
            "geocode_query": "BASF, Germany"
          },
          {
            "name": "DuPont de Nemours",
            "location": "Delaware - USA",
            "is_primary": false,
            "lat": 47.7979001,
            "lon": 7.190275,
            "geocode_provider": "nominatim",
            "geocode_query": "DuPont de Nemours"
          },
          {
            "name": "Toray Industries",
            "location": "Japan",
            "is_primary": false,
            "geocode_query": "Toray Industries, Nagoya, Japan",
            "lat": 36.2048,
            "lon": 138.2529,
            "geocode_provider": "country_centroid"
          },
          {
            "name": "Inc.",
            "location": "Japon",
            "is_primary": false,
            "lat": 34.6986929,
            "lon": 135.4939905,
            "geocode_provider": "cache:nominatim",
            "geocode_query": "Inc., Japan"
          },
          {
            "name": "Bayer",
            "location": "Allemagne",
            "is_primary": false,
            "lat": 50.9431344,
            "lon": 13.6228032,
            "geocode_provider": "cache:nominatim",
            "geocode_query": "Bayer, Germany"
          }
        ],
        "raw_material": [
          {
            "name": "Mitsubischi chemical",
            "location": "Japon",
            "is_primary": true,
            "lat": 36.2048,
            "lon": 138.2529,
            "geocode_provider": "cache:nominatim",
            "geocode_query": "Mitsubischi chemical, Japan"
          },
          {
            "name": "Krohne",
            "location": "Allemagne",
            "is_primary": false,
            "lat": 51.1498261,
            "lon": 13.7978466,
            "geocode_provider": "cache:nominatim",
            "geocode_query": "Krohne, Germany"
          },
          {
            "name": "DuPont de Nemours",
            "location": "USA",
            "is_primary": false,
            "lat": 39.7837304,
            "lon": -100.4458825,
            "geocode_provider": "cache:nominatim",
            "geocode_query": "DuPont de Nemours, United States"
          }
        ],
        "primary_material": []
      },
      "transport": {
        "from_supplier_to_safran": {
          "modes": [
            "Camion"
          ]
        },
        "to_first_transformation": {
          "modes": [
            "Train - Camion - Bateau"
          ]
        },
        "mine_to_refinery": {
          "modes": [
            "Bateau",
            "Pipeline"
          ]
        }
      },
      "market_share_pct": "",
      "mass_kg": 0.0,
      "mass_estimation_method": "no_data_in_source_file"
    },
    {
      "user": "Safran",
      "type": "Sous-ensemble",
      "system": "Accoudoir allée",
      "component": "packaging",
      "raw_materials": [
        "Film célophane",
        "Mousse polystyrène",
        "Carton",
        "Palette"
      ],
      "materials_estimates": "[{'material': 'Carton', 'estimated_mass_kg': nan, 'source': 'avg_from_stelia'}, {'material': 'Palette', 'estimated_mass_kg': nan, 'source': 'avg_from_stelia'}]",
      "material_modeling_refs": {},
      "suppliers": {
        "tier1": [
          {
            "name": "SUMPAR (France)*",
            "location": "France",
            "is_primary": true,
            "lat": 49.3892868,
            "lon": 1.2085766,
            "geocode_provider": "cache:nominatim",
            "geocode_query": "SUMPAR (France)*, France"
          },
          {
            "name": "segnere aero SAS",
            "location": "France",
            "is_primary": false,
            "geocode_query": "SEGNERE, ZI du Toulicou, 65100 Adé, France",
            "lat": 46.2276,
            "lon": 2.2137,
            "geocode_provider": "country_centroid"
          },
          {
            "name": "MGA Villeneuve St Lot",
            "location": "France",
            "is_primary": false,
            "geocode_query": "MGA, ZI La Barbière, Rue Nicolas Leblanc, 47300 Villeneuve-sur-Lot, France",
            "lat": 46.2276,
            "lon": 2.2137,
            "geocode_provider": "country_centroid"
          },
          {
            "name": "Lauak Group",
            "location": "France",
            "is_primary": false,
            "geocode_query": "Groupe LAUAK, 2245 Route de Minhotz, 64240 Hasparren, France",
            "country": "France",
            "lat": 46.2276,
            "lon": 2.2137,
            "geocode_provider": "country_centroid"
          }
        ],
        "first_transformation": [
          {
            "name": "RUBAFILM",
            "location": "France",
            "is_primary": true,
            "lat": 45.8731404,
            "lon": 4.4956782,
            "geocode_provider": "cache:nominatim",
            "geocode_query": "RUBAFILM, France"
          },
          {
            "name": "SURFILM PACKAGING",
            "location": "France",
            "is_primary": false,
            "geocode_query": "Surfilm Packaging, ZI de l'Orignade, 17600 Médis, France",
            "lat": 46.2276,
            "lon": 2.2137,
            "geocode_provider": "country_centroid"
          },
          {
            "name": "SORETRAC",
            "location": "France",
            "is_primary": false,
            "geocode_query": "SORETRAC, Toulouse, France",
            "lat": 46.2276,
            "lon": 2.2137,
            "geocode_provider": "country_centroid"
          },
          {
            "name": "Storopack",
            "location": "France",
            "is_primary": false,
            "geocode_query": "Storopack, Toulouse, France",
            "lat": 46.2276,
            "lon": 2.2137,
            "geocode_provider": "country_centroid"
          },
          {
            "name": "Butterfly Packaging",
            "location": "France",
            "is_primary": false,
            "lat": 48.6977721,
            "lon": 5.9059148,
            "geocode_provider": "cache:nominatim",
            "geocode_query": "Butterfly Packaging, France"
          },
          {
            "name": "RAJA",
            "location": "France",
            "is_primary": false,
            "lat": 48.9238938,
            "lon": 2.2611971,
            "geocode_provider": "cache:nominatim",
            "geocode_query": "RAJA, France"
          },
          {
            "name": "Transpack Group",
            "location": "France",
            "is_primary": false,
            "geocode_query": "Transpack Group, Toulouse, France",
            "lat": 46.2276,
            "lon": 2.2137,
            "geocode_provider": "country_centroid"
          },
          {
            "name": "Socarbois",
            "location": "France",
            "is_primary": false,
            "lat": 45.2653714,
            "lon": 4.8390553,
            "geocode_provider": "cache:nominatim",
            "geocode_query": "Socarbois, France"
          },
          {
            "name": "Palette.com",
            "location": "France",
            "is_primary": false,
            "geocode_query": "Palette.com, Toulouse, France",
            "lat": 46.2276,
            "lon": 2.2137,
            "geocode_provider": "country_centroid"
          }
        ],
        "raw_material": [
          {
            "name": "Kuehne-Nagel",
            "location": "Allemagne",
            "is_primary": true,
            "lat": 53.0904719,
            "lon": 8.7083473,
            "geocode_provider": "cache:nominatim",
            "geocode_query": "Kuehne-Nagel, Germany"
          },
          {
            "name": "Combigo",
            "location": "France",
            "is_primary": false,
            "geocode_query": "Société Transports COBIGO, Kermarec, 56150 Baud, France",
            "lat": 46.2276,
            "lon": 2.2137,
            "geocode_provider": "country_centroid"
          },
          {
            "name": "GEODIS",
            "location": "France",
            "is_primary": false,
            "lat": 47.655498,
            "lon": 7.0034575,
            "geocode_provider": "cache:nominatim",
            "geocode_query": "GEODIS, France"
          },
          {
            "name": "CEVA Logistics",
            "location": "France",
            "is_primary": false,
            "lat": 47.516546,
            "lon": 6.8642361,
            "geocode_provider": "cache:nominatim",
            "geocode_query": "CEVA Logistics, France"
          },
          {
            "name": "Ensinger",
            "location": "Allemagne",
            "is_primary": false,
            "lat": 48.5010122,
            "lon": 8.8201999,
            "geocode_provider": "cache:nominatim",
            "geocode_query": "Ensinger, Germany"
          },
          {
            "name": "BASF",
            "location": "Allemagne",
            "is_primary": false,
            "lat": 49.5528125,
            "lon": 8.3516349,
            "geocode_provider": "cache:nominatim",
            "geocode_query": "BASF, Germany"
          },
          {
            "name": "Bayer",
            "location": "Allemagne",
            "is_primary": false,
            "lat": 50.9431344,
            "lon": 13.6228032,
            "geocode_provider": "cache:nominatim",
            "geocode_query": "Bayer, Germany"
          }
        ],
        "primary_material": []
      },
      "transport": {
        "from_supplier_to_safran": {
          "modes": [
            "Camion"
          ]
        },
        "to_first_transformation": {
          "modes": [
            "Camion"
          ]
        },
        "mine_to_refinery": {
          "modes": []
        }
      },
      "market_share_pct": "",
      "mass_kg": 0.0,
      "mass_estimation_method": "no_data_in_source_file"
    },
    {
      "user": "Safran",
      "type": "Sous-ensemble",
      "system": "Accoudoir allée",
      "component": "Transport",
      "raw_materials": [
        "CONTENAIRE",
        "Kuehne-Nagel (Allemagne)",
        "Combigo (France)",
        "GEODIS (France)",
        "XPO Logistic (USA)",
        "CEVA Logistics (France)"
      ],
      "materials_estimates": [],
      "material_modeling_refs": {},
      "suppliers": {
        "tier1": [
          {
            "name": "SUMPAR (France)*",
            "location": "France",
            "is_primary": true,
            "lat": 49.3892868,
            "lon": 1.2085766,
            "geocode_provider": "cache:nominatim",
            "geocode_query": "SUMPAR (France)*, France"
          },
          {
            "name": "segnere aero SAS",
            "location": "France",
            "is_primary": false,
            "geocode_query": "SEGNERE, ZI du Toulicou, 65100 Adé, France",
            "lat": 46.2276,
            "lon": 2.2137,
            "geocode_provider": "country_centroid"
          },
          {
            "name": "MGA Villeneuve St Lot",
            "location": "France",
            "is_primary": false,
            "geocode_query": "MGA, ZI La Barbière, Rue Nicolas Leblanc, 47300 Villeneuve-sur-Lot, France",
            "lat": 46.2276,
            "lon": 2.2137,
            "geocode_provider": "country_centroid"
          },
          {
            "name": "Lauak Group",
            "location": "France",
            "is_primary": false,
            "geocode_query": "Groupe LAUAK, 2245 Route de Minhotz, 64240 Hasparren, France",
            "country": "France",
            "lat": 46.2276,
            "lon": 2.2137,
            "geocode_provider": "country_centroid"
          }
        ],
        "first_transformation": [
          {
            "name": "RUBAFILM",
            "location": "France",
            "is_primary": true,
            "lat": 45.8731404,
            "lon": 4.4956782,
            "geocode_provider": "cache:nominatim",
            "geocode_query": "RUBAFILM, France"
          },
          {
            "name": "SURFILM PACKAGING",
            "location": "France",
            "is_primary": false,
            "geocode_query": "Surfilm Packaging, ZI de l'Orignade, 17600 Médis, France",
            "lat": 46.2276,
            "lon": 2.2137,
            "geocode_provider": "country_centroid"
          },
          {
            "name": "SORETRAC",
            "location": "France",
            "is_primary": false,
            "geocode_query": "SORETRAC, Toulouse, France",
            "lat": 46.2276,
            "lon": 2.2137,
            "geocode_provider": "country_centroid"
          },
          {
            "name": "Storopack",
            "location": "France",
            "is_primary": false,
            "geocode_query": "Storopack, Toulouse, France",
            "lat": 46.2276,
            "lon": 2.2137,
            "geocode_provider": "country_centroid"
          },
          {
            "name": "Butterfly Packaging",
            "location": "France",
            "is_primary": false,
            "lat": 48.6977721,
            "lon": 5.9059148,
            "geocode_provider": "cache:nominatim",
            "geocode_query": "Butterfly Packaging, France"
          },
          {
            "name": "RAJA",
            "location": "France",
            "is_primary": false,
            "lat": 48.9238938,
            "lon": 2.2611971,
            "geocode_provider": "cache:nominatim",
            "geocode_query": "RAJA, France"
          },
          {
            "name": "Transpack Group",
            "location": "France",
            "is_primary": false,
            "geocode_query": "Transpack Group, Toulouse, France",
            "lat": 46.2276,
            "lon": 2.2137,
            "geocode_provider": "country_centroid"
          },
          {
            "name": "Socarbois",
            "location": "France",
            "is_primary": false,
            "lat": 45.2653714,
            "lon": 4.8390553,
            "geocode_provider": "cache:nominatim",
            "geocode_query": "Socarbois, France"
          },
          {
            "name": "Palette.com",
            "location": "France",
            "is_primary": false,
            "geocode_query": "Palette.com, Toulouse, France",
            "lat": 46.2276,
            "lon": 2.2137,
            "geocode_provider": "country_centroid"
          }
        ],
        "raw_material": [
          {
            "name": "Kuehne-Nagel",
            "location": "Allemagne",
            "is_primary": true,
            "lat": 53.0904719,
            "lon": 8.7083473,
            "geocode_provider": "cache:nominatim",
            "geocode_query": "Kuehne-Nagel, Germany"
          },
          {
            "name": "Combigo",
            "location": "France",
            "is_primary": false,
            "geocode_query": "Société Transports COBIGO, Kermarec, 56150 Baud, France",
            "lat": 46.2276,
            "lon": 2.2137,
            "geocode_provider": "country_centroid"
          },
          {
            "name": "GEODIS",
            "location": "France",
            "is_primary": false,
            "lat": 47.655498,
            "lon": 7.0034575,
            "geocode_provider": "cache:nominatim",
            "geocode_query": "GEODIS, France"
          },
          {
            "name": "XPO Logistic",
            "location": "USA",
            "is_primary": false,
            "lat": 39.7837304,
            "lon": -100.4458825,
            "geocode_provider": "cache:nominatim",
            "geocode_query": "XPO Logistic, United States"
          },
          {
            "name": "CEVA Logistics",
            "location": "France",
            "is_primary": false,
            "lat": 47.516546,
            "lon": 6.8642361,
            "geocode_provider": "cache:nominatim",
            "geocode_query": "CEVA Logistics, France"
          }
        ],
        "primary_material": []
      },
      "transport": {
        "from_supplier_to_safran": {
          "modes": [
            "Camion - Bateau"
          ]
        },
        "to_first_transformation": {
          "modes": [
            "Bateau - Camion"
          ]
        },
        "mine_to_refinery": {
          "modes": []
        }
      },
      "market_share_pct": "",
      "mass_kg": 0.0,
      "mass_estimation_method": "no_data_in_source_file"
    },
    {
      "user": "Safran",
      "type": "Sous-ensemble",
      "system": "Ensemble porte",
      "component": "FILM DECOR AERFILM - Ep0.33 714g-m2",
      "raw_materials": [
        "Caoutchouc --> PVC",
        "Polypropylène ou polyethylène",
        "noyaux acryliques pour une tenue à long terme",
        "mousse pour l'isolation"
      ],
      "materials_estimates": [],
      "material_modeling_refs": {},
      "suppliers": {
        "tier1": [
          {
            "name": "MGA (Villeneuve St Lot",
            "location": "France",
            "is_primary": true,
            "geocode_query": "MGA, ZI La Barbière, Rue Nicolas Leblanc, 47300 Villeneuve-sur-Lot, France",
            "lat": 46.2276,
            "lon": 2.2137,
            "geocode_provider": "country_centroid"
          },
          {
            "name": "Adhetec",
            "location": "France",
            "is_primary": false,
            "geocode_query": "Adhetec, Toulouse, France",
            "lat": 46.2276,
            "lon": 2.2137,
            "geocode_provider": "country_centroid"
          },
          {
            "name": "KEMKO Aerospace",
            "location": "USA",
            "is_primary": false,
            "lat": 39.7837304,
            "lon": -100.4458825,
            "geocode_provider": "cache:nominatim",
            "geocode_query": "KEMKO Aerospace, United States"
          }
        ],
        "first_transformation": [
          {
            "name": "EPODEX",
            "location": "France",
            "is_primary": true,
            "geocode_query": "EPODEX, Toulouse, France",
            "lat": 46.2276,
            "lon": 2.2137,
            "geocode_provider": "country_centroid"
          },
          {
            "name": "SIKA",
            "location": "USA",
            "is_primary": false,
            "lat": 40.6997868,
            "lon": -73.9244291,
            "geocode_provider": "cache:nominatim",
            "geocode_query": "SIKA, United States"
          },
          {
            "name": "HENKEL",
            "location": "Allemagne",
            "is_primary": false,
            "lat": 50.987772,
            "lon": 13.8462669,
            "geocode_provider": "cache:nominatim",
            "geocode_query": "HENKEL, Germany"
          }
        ],
        "raw_material": [
          {
            "name": "Kuehne-Nagel",
            "location": "Allemagne",
            "is_primary": true,
            "lat": 53.0904719,
            "lon": 8.7083473,
            "geocode_provider": "cache:nominatim",
            "geocode_query": "Kuehne-Nagel, Germany"
          },
          {
            "name": "Combigo",
            "location": "France",
            "is_primary": false,
            "geocode_query": "Société Transports COBIGO, Kermarec, 56150 Baud, France",
            "lat": 46.2276,
            "lon": 2.2137,
            "geocode_provider": "country_centroid"
          },
          {
            "name": "GEODIS",
            "location": "France",
            "is_primary": false,
            "lat": 47.655498,
            "lon": 7.0034575,
            "geocode_provider": "cache:nominatim",
            "geocode_query": "GEODIS, France"
          },
          {
            "name": "XPO Logistic",
            "location": "USA",
            "is_primary": false,
            "lat": 39.7837304,
            "lon": -100.4458825,
            "geocode_provider": "cache:nominatim",
            "geocode_query": "XPO Logistic, United States"
          },
          {
            "name": "CEVA Logistics",
            "location": "France",
            "is_primary": false,
            "lat": 47.516546,
            "lon": 6.8642361,
            "geocode_provider": "cache:nominatim",
            "geocode_query": "CEVA Logistics, France"
          }
        ],
        "primary_material": []
      },
      "transport": {
        "from_supplier_to_safran": {
          "modes": [
            "Camion"
          ]
        },
        "to_first_transformation": {
          "modes": [
            "Bilogistik SA"
          ]
        },
        "mine_to_refinery": {
          "modes": [
            "Caoutchouc naturel --> Bateau",
            "Caoutchouc synthétique (résine) --> Bateau - Camion"
          ]
        }
      },
      "market_share_pct": "",
      "mass_kg": 0.0,
      "mass_estimation_method": "no_data_in_source_file"
    },
    {
      "user": "Safran",
      "type": "Sous-ensemble",
      "system": "Bumper version porte",
      "component": "alliage Cu",
      "raw_materials": [
        "alliage Cu"
      ],
      "materials_estimates": [],
      "material_modeling_refs": {},
      "suppliers": {
        "tier1": [
          {
            "name": "SUMPAR (France)",
            "location": "France",
            "is_primary": true,
            "lat": 49.3892868,
            "lon": 1.2085766,
            "geocode_provider": "cache:nominatim",
            "geocode_query": "SUMPAR (France), France"
          },
          {
            "name": "segnere aero SAS",
            "location": "France",
            "is_primary": false,
            "geocode_query": "SEGNERE, ZI du Toulicou, 65100 Adé, France",
            "lat": 46.2276,
            "lon": 2.2137,
            "geocode_provider": "country_centroid"
          },
          {
            "name": "MGA Villeneuve St Lot",
            "location": "France",
            "is_primary": false,
            "geocode_query": "MGA, ZI La Barbière, Rue Nicolas Leblanc, 47300 Villeneuve-sur-Lot, France",
            "lat": 46.2276,
            "lon": 2.2137,
            "geocode_provider": "country_centroid"
          },
          {
            "name": "SENIOR AEROSPACE",
            "location": "Thailand",
            "is_primary": false,
            "geocode_query": "SENIOR AEROSPACE, Chonburi, Thailand",
            "lat": 15.87,
            "lon": 100.9925,
            "geocode_provider": "country_centroid"
          }
        ],
        "first_transformation": [
          {
            "name": "Aurubis",
            "location": "Allemagne",
            "is_primary": true,
            "lat": 50.7584717,
            "lon": 6.234312,
            "geocode_provider": "cache:nominatim",
            "geocode_query": "Aurubis, Germany"
          },
          {
            "name": "Zijin Mining Group",
            "location": "Chine",
            "is_primary": false,
            "lat": 25.0661001,
            "lon": 116.4232586,
            "geocode_provider": "cache:nominatim",
            "geocode_query": "Zijin Mining Group, China"
          },
          {
            "name": "Ampco Metal France",
            "location": "France",
            "is_primary": false,
            "geocode_query": "Ampco Metal France, Toulouse, France",
            "lat": 46.2276,
            "lon": 2.2137,
            "geocode_provider": "country_centroid"
          },
          {
            "name": "Thyssen group",
            "location": "France",
            "is_primary": false,
            "geocode_query": "thyssenkrupp Materials France, ZA Pariwest, 6 Avenue Gutenberg, 78310 Maurepas, France",
            "lat": 46.2276,
            "lon": 2.2137,
            "geocode_provider": "country_centroid"
          }
        ],
        "raw_material": [
          {
            "name": "Saarstahl",
            "location": "Allemagne",
            "is_primary": true,
            "lat": 49.3593951,
            "lon": 7.1714727,
            "geocode_provider": "cache:nominatim",
            "geocode_query": "Saarstahl, Germany"
          },
          {
            "name": "Arcelor Mittal",
            "location": "Luxembourg",
            "is_primary": false,
            "lat": 49.579589,
            "lon": 6.1108861,
            "geocode_provider": "cache:nominatim",
            "geocode_query": "Arcelor Mittal, Luxembourg"
          },
          {
            "name": "China Baowu",
            "location": "Chine",
            "is_primary": false,
            "lat": 35.8617,
            "lon": 104.1954,
            "geocode_provider": "cache:nominatim",
            "geocode_query": "China Baowu, China"
          },
          {
            "name": "TATA Steel",
            "location": "Inde",
            "is_primary": false,
            "lat": 22.7853607,
            "lon": 86.1994836,
            "geocode_provider": "cache:nominatim",
            "geocode_query": "TATA Steel, India"
          },
          {
            "name": "Nucor Corp",
            "location": "USA",
            "is_primary": false,
            "lat": 39.7837304,
            "lon": -100.4458825,
            "geocode_provider": "cache:nominatim",
            "geocode_query": "Nucor Corp, United States"
          }
        ],
        "primary_material": []
      },
      "transport": {
        "from_supplier_to_safran": {
          "modes": [
            "Camion - Bateau"
          ]
        },
        "to_first_transformation": {
          "modes": [
            "Train - Camion - Bateau"
          ]
        },
        "mine_to_refinery": {
          "modes": []
        }
      },
      "market_share_pct": "",
      "mass_kg": 0.0,
      "mass_estimation_method": "no_data_in_source_file"
    },
    {
      "user": "Safran",
      "type": "Sous-ensemble",
      "system": "Ens. Stowage latéral",
      "component": "cuir",
      "raw_materials": [
        "Cuir"
      ],
      "materials_estimates": [],
      "material_modeling_refs": {},
      "suppliers": {
        "tier1": [
          {
            "name": "MGA (Villeneuve St Lot",
            "location": "France",
            "is_primary": true,
            "geocode_query": "MGA, ZI La Barbière, Rue Nicolas Leblanc, 47300 Villeneuve-sur-Lot, France",
            "lat": 46.2276,
            "lon": 2.2137,
            "geocode_provider": "country_centroid"
          },
          {
            "name": "ACH",
            "location": "France",
            "is_primary": false,
            "lat": 45.6878265,
            "lon": 5.9476989,
            "geocode_provider": "cache:nominatim",
            "geocode_query": "ACH, France"
          },
          {
            "name": "Celso",
            "location": "France",
            "is_primary": false,
            "geocode_query": "Celso SAS, 200 impasse de Fontanilles, ZI de Bressols, 82710 Bressols, France",
            "lat": 46.2276,
            "lon": 2.2137,
            "geocode_provider": "country_centroid"
          }
        ],
        "first_transformation": [
          {
            "name": "La Filière Française du cuir",
            "location": "France",
            "is_primary": true,
            "geocode_query": "La Filière Française du cuir, Toulouse, France",
            "lat": 46.2276,
            "lon": 2.2137,
            "geocode_provider": "country_centroid"
          },
          {
            "name": "Maison Fichet",
            "location": "France",
            "is_primary": false,
            "lat": 48.8706283,
            "lon": 2.3633735,
            "geocode_provider": "cache:nominatim",
            "geocode_query": "Maison Fichet, France"
          },
          {
            "name": "EUREKA SARL DERAYGE SERVICE",
            "location": "France",
            "is_primary": false,
            "geocode_query": "EUREKA SARL DERAYGE SERVICE, Toulouse, France",
            "lat": 46.2276,
            "lon": 2.2137,
            "geocode_provider": "country_centroid"
          }
        ],
        "raw_material": [
          {
            "name": "La Filière Française du cuir",
            "location": "France",
            "is_primary": true,
            "geocode_query": "La Filière Française du cuir, Toulouse, France",
            "lat": 46.2276,
            "lon": 2.2137,
            "geocode_provider": "country_centroid"
          },
          {
            "name": "Maison Fichet",
            "location": "France",
            "is_primary": false,
            "lat": 48.8706283,
            "lon": 2.3633735,
            "geocode_provider": "cache:nominatim",
            "geocode_query": "Maison Fichet, France"
          },
          {
            "name": "EUREKA SARL DERAYGE SERVICE",
            "location": "France",
            "is_primary": false,
            "geocode_query": "EUREKA SARL DERAYGE SERVICE, Toulouse, France",
            "lat": 46.2276,
            "lon": 2.2137,
            "geocode_provider": "country_centroid"
          }
        ],
        "primary_material": []
      },
      "transport": {
        "from_supplier_to_safran": {
          "modes": [
            "Camion"
          ]
        },
        "to_first_transformation": {
          "modes": [
            "Interne entreprise"
          ]
        },
        "mine_to_refinery": {
          "modes": []
        }
      },
      "market_share_pct": "",
      "mass_kg": 0.0,
      "mass_estimation_method": "no_data_in_source_file"
    },
    {
      "user": "Safran",
      "type": "Sous-ensemble",
      "system": "Brackets set",
      "component": "Transport",
      "raw_materials": [
        "Contenaire",
        "Kuehne-Nagel (Allemagne)",
        "Combigo (France)",
        "GEODIS (France)",
        "XPO Logistic (USA)",
        "CEVA Logistics (France)"
      ],
      "materials_estimates": [],
      "material_modeling_refs": {},
      "suppliers": {
        "tier1": [
          {
            "name": "JAMMY Inc (USA)*",
            "location": "USA",
            "is_primary": true,
            "lat": 39.7837304,
            "lon": -100.4458825,
            "geocode_provider": "cache:nominatim",
            "geocode_query": "JAMMY Inc (USA)*, United States"
          },
          {
            "name": "Tyco Electronic",
            "location": "USA",
            "is_primary": false,
            "lat": 39.7837304,
            "lon": -100.4458825,
            "geocode_provider": "cache:nominatim",
            "geocode_query": "Tyco Electronic, United States"
          },
          {
            "name": "General Electric",
            "location": "USA",
            "is_primary": false,
            "lat": 41.0195211,
            "lon": -75.1951162,
            "geocode_provider": "cache:nominatim",
            "geocode_query": "General Electric, United States"
          },
          {
            "name": "Honeywell",
            "location": "USA",
            "is_primary": false,
            "lat": 33.7741222,
            "lon": -84.3843122,
            "geocode_provider": "cache:nominatim",
            "geocode_query": "Honeywell, United States"
          },
          {
            "name": "SCHNEIDER",
            "location": "France",
            "is_primary": false,
            "lat": 48.5958278,
            "lon": 7.632476,
            "geocode_provider": "cache:nominatim",
            "geocode_query": "SCHNEIDER, France"
          },
          {
            "name": "THALES",
            "location": "France",
            "is_primary": false,
            "lat": 43.5638842,
            "lon": 1.3821146,
            "geocode_provider": "cache:nominatim",
            "geocode_query": "THALES, France"
          }
        ],
        "first_transformation": [
          {
            "name": "RUBAFILM",
            "location": "France",
            "is_primary": true,
            "lat": 45.8731404,
            "lon": 4.4956782,
            "geocode_provider": "cache:nominatim",
            "geocode_query": "RUBAFILM, France"
          },
          {
            "name": "SURFILM PACKAGING",
            "location": "France",
            "is_primary": false,
            "geocode_query": "Surfilm Packaging, ZI de l'Orignade, 17600 Médis, France",
            "lat": 46.2276,
            "lon": 2.2137,
            "geocode_provider": "country_centroid"
          },
          {
            "name": "SORETRAC",
            "location": "France",
            "is_primary": false,
            "geocode_query": "SORETRAC, Toulouse, France",
            "lat": 46.2276,
            "lon": 2.2137,
            "geocode_provider": "country_centroid"
          },
          {
            "name": "Storopack",
            "location": "France",
            "is_primary": false,
            "geocode_query": "Storopack, Toulouse, France",
            "lat": 46.2276,
            "lon": 2.2137,
            "geocode_provider": "country_centroid"
          },
          {
            "name": "Butterfly Packaging",
            "location": "France",
            "is_primary": false,
            "lat": 48.6977721,
            "lon": 5.9059148,
            "geocode_provider": "cache:nominatim",
            "geocode_query": "Butterfly Packaging, France"
          },
          {
            "name": "RAJA",
            "location": "France",
            "is_primary": false,
            "lat": 48.9238938,
            "lon": 2.2611971,
            "geocode_provider": "cache:nominatim",
            "geocode_query": "RAJA, France"
          },
          {
            "name": "Transpack Group",
            "location": "France",
            "is_primary": false,
            "geocode_query": "Transpack Group, Toulouse, France",
            "lat": 46.2276,
            "lon": 2.2137,
            "geocode_provider": "country_centroid"
          },
          {
            "name": "Socarbois",
            "location": "France",
            "is_primary": false,
            "lat": 45.2653714,
            "lon": 4.8390553,
            "geocode_provider": "cache:nominatim",
            "geocode_query": "Socarbois, France"
          },
          {
            "name": "Palette.com",
            "location": "France",
            "is_primary": false,
            "geocode_query": "Palette.com, Toulouse, France",
            "lat": 46.2276,
            "lon": 2.2137,
            "geocode_provider": "country_centroid"
          }
        ],
        "raw_material": [
          {
            "name": "Kuehne-Nagel",
            "location": "Allemagne",
            "is_primary": true,
            "lat": 53.0904719,
            "lon": 8.7083473,
            "geocode_provider": "cache:nominatim",
            "geocode_query": "Kuehne-Nagel, Germany"
          },
          {
            "name": "Combigo",
            "location": "France",
            "is_primary": false,
            "geocode_query": "Société Transports COBIGO, Kermarec, 56150 Baud, France",
            "lat": 46.2276,
            "lon": 2.2137,
            "geocode_provider": "country_centroid"
          },
          {
            "name": "GEODIS",
            "location": "France",
            "is_primary": false,
            "lat": 47.655498,
            "lon": 7.0034575,
            "geocode_provider": "cache:nominatim",
            "geocode_query": "GEODIS, France"
          },
          {
            "name": "XPO Logistic",
            "location": "USA",
            "is_primary": false,
            "lat": 39.7837304,
            "lon": -100.4458825,
            "geocode_provider": "cache:nominatim",
            "geocode_query": "XPO Logistic, United States"
          },
          {
            "name": "CEVA Logistics",
            "location": "France",
            "is_primary": false,
            "lat": 47.516546,
            "lon": 6.8642361,
            "geocode_provider": "cache:nominatim",
            "geocode_query": "CEVA Logistics, France"
          }
        ],
        "primary_material": []
      },
      "transport": {
        "from_supplier_to_safran": {
          "modes": [
            "Camion - Bateau"
          ]
        },
        "to_first_transformation": {
          "modes": [
            "Bateau - Camion"
          ]
        },
        "mine_to_refinery": {
          "modes": []
        }
      },
      "market_share_pct": "",
      "mass_kg": 0.0,
      "mass_estimation_method": "no_data_in_source_file"
    },
    {
      "user": "Safran",
      "type": "Sous-ensemble",
      "system": "lightning",
      "component": "lightning",
      "raw_materials": [
        "Diode (COTS)"
      ],
      "materials_estimates": [],
      "material_modeling_refs": {
        "Diode (COTS)": [
          "Light emitting diode {GLO} market for APOS",
          "U"
        ]
      },
      "suppliers": {
        "tier1": [
          {
            "name": "S.E.L.A (France)*",
            "location": "France",
            "is_primary": true,
            "lat": 48.8012986,
            "lon": 2.4021145,
            "geocode_provider": "cache:nominatim",
            "geocode_query": "S.E.L.A (France)*, France"
          },
          {
            "name": "THALES",
            "location": "France",
            "is_primary": false,
            "lat": 43.5638842,
            "lon": 1.3821146,
            "geocode_provider": "cache:nominatim",
            "geocode_query": "THALES, France"
          },
          {
            "name": "Madelec Aero",
            "location": "France",
            "is_primary": false,
            "lat": 48.6244007,
            "lon": 1.8162547,
            "geocode_provider": "cache:nominatim",
            "geocode_query": "Madelec Aero, France"
          },
          {
            "name": "MGR FOAMTEX",
            "location": "Angleterre",
            "is_primary": false,
            "geocode_provider": "cache:nominatim",
            "geocode_query": "MGR Foamtex, Dax House, Wenman Road, Thame OX9 3SE, United Kingdom",
            "lat": 51.739561,
            "lon": -0.966526
          },
          {
            "name": "SCHOTT",
            "location": "Allemagne",
            "is_primary": false,
            "lat": 51.7740052,
            "lon": 7.8698781,
            "geocode_provider": "cache:nominatim",
            "geocode_query": "SCHOTT, Germany"
          }
        ],
        "first_transformation": [
          {
            "name": "E2IP --> Apriori monosource --> dangereux",
            "location": "Canada",
            "is_primary": true,
            "geocode_query": "e2ip technologies, 1455 32nd Avenue, Lachine QC H8T 3J1, Canada",
            "country": "Canada",
            "lat": 56.1304,
            "lon": -106.3468,
            "geocode_provider": "country_centroid"
          },
          {
            "name": "SAFRAN (France) --> multinationale rang 1 des fabricants aéronautique",
            "location": "France",
            "is_primary": false,
            "geocode_query": "SAFRAN (France) --> multinationale rang 1 des fabricants aéronautique, Toulouse, France",
            "lat": 46.2276,
            "lon": 2.2137,
            "geocode_provider": "country_centroid"
          },
          {
            "name": "Auger a démarcher mais orienté auto --> risque de peu d'intérêt pour avion….",
            "location": "France",
            "is_primary": false,
            "geocode_query": "Auger a démarcher mais orienté auto --> risque de peu d'intérêt pour avion…., Toulouse, France",
            "lat": 46.2276,
            "lon": 2.2137,
            "geocode_provider": "country_centroid"
          },
          {
            "name": "Valeo",
            "location": "France",
            "is_primary": false,
            "lat": 45.9284333,
            "lon": 5.7217314,
            "geocode_provider": "cache:nominatim",
            "geocode_query": "Valeo, France"
          }
        ],
        "raw_material": [
          {
            "name": "Diodes Incorporated",
            "location": "USA",
            "is_primary": true,
            "lat": 39.7837304,
            "lon": -100.4458825,
            "geocode_provider": "cache:nominatim",
            "geocode_query": "Diodes Incorporated, United States"
          },
          {
            "name": "Infineon Technologies AG",
            "location": "Allemagne",
            "is_primary": false,
            "lat": 51.1011858,
            "lon": 13.731307,
            "geocode_provider": "cache:nominatim",
            "geocode_query": "Infineon Technologies AG, Germany"
          },
          {
            "name": "ROHM Co. Ltd",
            "location": "Japon",
            "is_primary": false,
            "lat": 36.2048,
            "lon": 138.2529,
            "geocode_provider": "cache:nominatim",
            "geocode_query": "ROHM Co. Ltd, Japan"
          }
        ],
        "primary_material": []
      },
      "transport": {
        "from_supplier_to_safran": {
          "modes": [
            "Camion - Bateau"
          ]
        },
        "to_first_transformation": {
          "modes": [
            "Bateau - Camion"
          ]
        },
        "mine_to_refinery": {
          "modes": [
            "Bateau"
          ]
        }
      },
      "market_share_pct": "",
      "mass_kg": 0.0,
      "mass_estimation_method": "no_data_in_source_file"
    },
    {
      "user": "Safran",
      "type": "Sous-ensemble",
      "system": "Padding (rembourrage)",
      "component": "AIRVOLT LAMINAT",
      "raw_materials": [
        "Papier Kraft"
      ],
      "materials_estimates": "[{'material': 'Papier Kraft', 'estimated_mass_kg': nan, 'source': 'avg_from_stelia'}]",
      "material_modeling_refs": {},
      "suppliers": {
        "tier1": [
          {
            "name": "MGR FOAMTEX",
            "location": "Angleterre",
            "is_primary": true,
            "geocode_provider": "cache:nominatim",
            "geocode_query": "MGR Foamtex, Dax House, Wenman Road, Thame OX9 3SE, United Kingdom",
            "lat": 51.739561,
            "lon": -0.966526
          },
          {
            "name": "Celso",
            "location": "France",
            "is_primary": false,
            "geocode_query": "Celso SAS, 200 impasse de Fontanilles, ZI de Bressols, 82710 Bressols, France",
            "lat": 46.2276,
            "lon": 2.2137,
            "geocode_provider": "country_centroid"
          }
        ],
        "first_transformation": [
          {
            "name": "Kronotex GmbH & Co",
            "location": "Allemagne",
            "is_primary": true,
            "lat": 53.1471628,
            "lon": 12.3793247,
            "geocode_provider": "cache:nominatim",
            "geocode_query": "Kronotex GmbH & Co, Germany"
          },
          {
            "name": "Pergo",
            "location": "Suède",
            "is_primary": false,
            "lat": 60.1282,
            "lon": 18.6435,
            "geocode_provider": "cache:nominatim",
            "geocode_query": "Pergo, Sweden"
          },
          {
            "name": "Balterio",
            "location": "Belgique",
            "is_primary": false,
            "lat": 50.9188908,
            "lon": 3.3953851,
            "geocode_provider": "cache:nominatim",
            "geocode_query": "Balterio, Belgium"
          },
          {
            "name": "FORMICA",
            "location": "France",
            "is_primary": false,
            "lat": 42.9058395,
            "lon": 2.1927674,
            "geocode_provider": "cache:nominatim",
            "geocode_query": "FORMICA, France"
          }
        ],
        "raw_material": [
          {
            "name": "Group Mondi",
            "location": "Autriche",
            "is_primary": true,
            "lat": 47.5162,
            "lon": 14.5501,
            "geocode_provider": "cache:nominatim",
            "geocode_query": "Group Mondi, Austria"
          },
          {
            "name": "Klabin S.A.",
            "location": "Brésil",
            "is_primary": false,
            "lat": -29.7858184,
            "lon": -51.1144326,
            "geocode_provider": "cache:nominatim",
            "geocode_query": "Klabin S.A., Brazil"
          },
          {
            "name": "Billerudkorsnäs",
            "location": "Suède",
            "is_primary": false,
            "lat": 59.4786752,
            "lon": 15.3314174,
            "geocode_provider": "cache:nominatim",
            "geocode_query": "Billerudkorsnäs, Sweden"
          },
          {
            "name": "Daio Paper Corporation",
            "location": "Japon",
            "is_primary": false,
            "lat": 36.2048,
            "lon": 138.2529,
            "geocode_provider": "cache:nominatim",
            "geocode_query": "Daio Paper Corporation, Japan"
          },
          {
            "name": "Nordic Paper Oyj",
            "location": "Finlande",
            "is_primary": false,
            "lat": 59.1400084,
            "lon": 12.9178462,
            "geocode_provider": "nominatim",
            "geocode_query": "Nordic Paper"
          },
          {
            "name": "Glatfelter",
            "location": "USA",
            "is_primary": false,
            "lat": 39.871164,
            "lon": -76.8640254,
            "geocode_provider": "cache:nominatim",
            "geocode_query": "Glatfelter, United States"
          },
          {
            "name": "Gascogne Papier",
            "location": "France",
            "is_primary": false,
            "geocode_query": "Gascogne Papier, Toulouse, France",
            "lat": 46.2276,
            "lon": 2.2137,
            "geocode_provider": "country_centroid"
          },
          {
            "name": "Smurfit Kappa Group plc",
            "location": "Irlande",
            "is_primary": false,
            "lat": 53.1424,
            "lon": -7.6921,
            "geocode_provider": "cache:nominatim",
            "geocode_query": "Smurfit Kappa Group plc, Ireland"
          }
        ],
        "primary_material": []
      },
      "transport": {
        "from_supplier_to_safran": {
          "modes": [
            "Camion"
          ]
        },
        "to_first_transformation": {
          "modes": [
            "Train - Camion - Bateau"
          ]
        },
        "mine_to_refinery": {
          "modes": []
        }
      },
      "market_share_pct": "",
      "mass_kg": 0.0,
      "mass_estimation_method": "no_data_in_source_file"
    },
    {
      "user": "Safran",
      "type": "Sous-ensemble",
      "system": "Stowage assemblé avec porte",
      "component": "Silicone",
      "raw_materials": [
        "Quartz et silice"
      ],
      "materials_estimates": [],
      "material_modeling_refs": {},
      "suppliers": {
        "tier1": [
          {
            "name": "MGA (Villeneuve St Lot",
            "location": "France",
            "is_primary": true,
            "geocode_query": "MGA, ZI La Barbière, Rue Nicolas Leblanc, 47300 Villeneuve-sur-Lot, France",
            "lat": 46.2276,
            "lon": 2.2137,
            "geocode_provider": "country_centroid"
          },
          {
            "name": "GATTEFIN",
            "location": "France",
            "is_primary": false,
            "lat": 47.1426393,
            "lon": 2.2372016,
            "geocode_provider": "cache:nominatim",
            "geocode_query": "GATTEFIN, France"
          },
          {
            "name": "Plastiservice",
            "location": "Belgique",
            "is_primary": false,
            "lat": 50.6940265,
            "lon": 5.6338412,
            "geocode_provider": "cache:nominatim",
            "geocode_query": "Plastiservice, Belgium"
          },
          {
            "name": "ACH",
            "location": "France",
            "is_primary": false,
            "lat": 45.6878265,
            "lon": 5.9476989,
            "geocode_provider": "cache:nominatim",
            "geocode_query": "ACH, France"
          }
        ],
        "first_transformation": [
          {
            "name": "Général Electric",
            "location": "USA",
            "is_primary": true,
            "lat": 41.0195211,
            "lon": -75.1951162,
            "geocode_provider": "cache:nominatim",
            "geocode_query": "Général Electric, United States"
          },
          {
            "name": "Saint Gobain",
            "location": "France",
            "is_primary": false,
            "lat": 49.5967,
            "lon": 3.3759,
            "geocode_provider": "cache:nominatim",
            "geocode_query": "Saint Gobain, France"
          },
          {
            "name": "Rhône Poulenc",
            "location": "France",
            "is_primary": false,
            "lat": 50.2986,
            "lon": 2.8154646,
            "geocode_provider": "cache:nominatim",
            "geocode_query": "Rhône Poulenc, France"
          },
          {
            "name": "Toschiba-Shinetsu",
            "location": "Japon",
            "is_primary": false,
            "lat": 36.2048,
            "lon": 138.2529,
            "geocode_provider": "cache:nominatim",
            "geocode_query": "Toschiba-Shinetsu, Japan"
          },
          {
            "name": "Silicon Engineering",
            "location": "Angleterre",
            "is_primary": false,
            "lat": 55.3781,
            "lon": -3.436,
            "geocode_provider": "cache:nominatim",
            "geocode_query": "Silicon Engineering, United Kingdom"
          }
        ],
        "raw_material": [
          {
            "name": "Général Electric",
            "location": "USA",
            "is_primary": true,
            "lat": 41.0195211,
            "lon": -75.1951162,
            "geocode_provider": "cache:nominatim",
            "geocode_query": "Général Electric, United States"
          },
          {
            "name": "Saint Gobain",
            "location": "France",
            "is_primary": false,
            "lat": 49.5967,
            "lon": 3.3759,
            "geocode_provider": "cache:nominatim",
            "geocode_query": "Saint Gobain, France"
          },
          {
            "name": "Rhône Poulenc",
            "location": "France",
            "is_primary": false,
            "lat": 50.2986,
            "lon": 2.8154646,
            "geocode_provider": "cache:nominatim",
            "geocode_query": "Rhône Poulenc, France"
          },
          {
            "name": "Toschiba-Shinetsu",
            "location": "Japon",
            "is_primary": false,
            "lat": 36.2048,
            "lon": 138.2529,
            "geocode_provider": "cache:nominatim",
            "geocode_query": "Toschiba-Shinetsu, Japan"
          },
          {
            "name": "Silicon Engineering",
            "location": "Angleterre",
            "is_primary": false,
            "lat": 55.3781,
            "lon": -3.436,
            "geocode_provider": "cache:nominatim",
            "geocode_query": "Silicon Engineering, United Kingdom"
          }
        ],
        "primary_material": []
      },
      "transport": {
        "from_supplier_to_safran": {
          "modes": [
            "Camion - Bateau"
          ]
        },
        "to_first_transformation": {
          "modes": [
            "Train - Camion - Bateau"
          ]
        },
        "mine_to_refinery": {
          "modes": [
            "Bateau",
            "Camion",
            "Train"
          ]
        }
      },
      "market_share_pct": "",
      "mass_kg": 0.0,
      "mass_estimation_method": "no_data_in_source_file"
    },
    {
      "user": "Safran",
      "type": "IFE",
      "system": "System IFE (In-Flight Entertainment) est un ensemble d'équipements et de logiciels qui permet aux passagers d'occuper leur temps à bord d'un avion.",
      "component": "System IFE boitier ref FJKL1-3K1100-01ATAB",
      "raw_materials": [
        "Silicium",
        "polycarbonate",
        "microprocesseur",
        "carte electronique",
        "plastique"
      ],
      "materials_estimates": [],
      "material_modeling_refs": {},
      "suppliers": {
        "tier1": [
          {
            "name": "JAMMY Inc (USA)*",
            "location": "USA",
            "is_primary": true,
            "lat": 39.7837304,
            "lon": -100.4458825,
            "geocode_provider": "cache:nominatim",
            "geocode_query": "JAMMY Inc (USA)*, United States"
          },
          {
            "name": "THALES",
            "location": "France",
            "is_primary": false,
            "lat": 43.5638842,
            "lon": 1.3821146,
            "geocode_provider": "cache:nominatim",
            "geocode_query": "THALES, France"
          },
          {
            "name": "PMV",
            "location": "France",
            "is_primary": false,
            "lat": 49.1925818,
            "lon": -0.4131276,
            "geocode_provider": "cache:nominatim",
            "geocode_query": "PMV, France"
          }
        ],
        "first_transformation": [
          {
            "name": "NDIVIA (USA) --> conception de processeurs graphiques",
            "location": "USA",
            "is_primary": true,
            "lat": 39.7837304,
            "lon": -100.4458825,
            "geocode_provider": "cache:nominatim",
            "geocode_query": "NDIVIA (USA) --> conception de processeurs graphiques, United States"
          },
          {
            "name": "Intel (USA) --> fondée en 1968 qui est le deuxième fabricant mondial de semi-conducteurs.",
            "location": "USA",
            "is_primary": false,
            "lat": 39.7837304,
            "lon": -100.4458825,
            "geocode_provider": "cache:nominatim",
            "geocode_query": "Intel (USA) --> fondée en 1968 qui est le deuxième fabricant mondial de semi-conducteurs., United States"
          },
          {
            "name": "TSMC (USA) --> recyclage de silicium pour fanrication de nouveaux lingots",
            "location": "USA",
            "is_primary": false,
            "lat": 39.7837304,
            "lon": -100.4458825,
            "geocode_provider": "cache:nominatim",
            "geocode_query": "TSMC (USA) --> recyclage de silicium pour fanrication de nouveaux lingots, United States"
          }
        ],
        "raw_material": [
          {
            "name": "BT Electronics fondée en 2004 - France",
            "location": "France",
            "is_primary": true,
            "geocode_query": "BT Electronics fondée en 2004 - France, Toulouse, France",
            "lat": 46.2276,
            "lon": 2.2137,
            "geocode_provider": "country_centroid"
          },
          {
            "name": "Saint-Gobain",
            "location": "France",
            "is_primary": false,
            "lat": 49.5967,
            "lon": 3.3759,
            "geocode_provider": "cache:nominatim",
            "geocode_query": "Saint-Gobain, France"
          },
          {
            "name": "3M",
            "location": "USA",
            "is_primary": false,
            "lat": 41.9519215,
            "lon": -88.7122029,
            "geocode_provider": "cache:nominatim",
            "geocode_query": "3M, United States"
          }
        ],
        "primary_material": []
      },
      "transport": {
        "from_supplier_to_safran": {
          "modes": [
            "Camion - Bateau"
          ]
        },
        "to_first_transformation": {
          "modes": [
            "Bateau - Camion"
          ]
        },
        "mine_to_refinery": {
          "modes": [
            "Bateau"
          ]
        }
      },
      "market_share_pct": "",
      "mass_kg": 0.0,
      "mass_estimation_method": "no_data_in_source_file"
    },
    {
      "user": "Safran",
      "type": "Sous-ensemble",
      "system": "Coussin ottoman",
      "component": "tissu",
      "raw_materials": [
        "Tissus"
      ],
      "materials_estimates": [],
      "material_modeling_refs": {},
      "suppliers": {
        "tier1": [
          {
            "name": "FRANKLIN",
            "location": "Pologne",
            "is_primary": true,
            "lat": 51.8215327,
            "lon": 20.5268712,
            "geocode_provider": "cache:nominatim",
            "geocode_query": "FRANKLIN, Poland"
          },
          {
            "name": "GATTEFIN",
            "location": "France",
            "is_primary": false,
            "lat": 47.1426393,
            "lon": 2.2372016,
            "geocode_provider": "cache:nominatim",
            "geocode_query": "GATTEFIN, France"
          },
          {
            "name": "Celso",
            "location": "France",
            "is_primary": false,
            "geocode_query": "Celso SAS, 200 impasse de Fontanilles, ZI de Bressols, 82710 Bressols, France",
            "lat": 46.2276,
            "lon": 2.2137,
            "geocode_provider": "country_centroid"
          },
          {
            "name": "ACH",
            "location": "France",
            "is_primary": false,
            "lat": 45.6878265,
            "lon": 5.9476989,
            "geocode_provider": "cache:nominatim",
            "geocode_query": "ACH, France"
          }
        ],
        "first_transformation": [
          {
            "name": "DIATEX",
            "location": "France",
            "is_primary": true,
            "geocode_query": "DIATEX, Toulouse, France",
            "lat": 46.2276,
            "lon": 2.2137,
            "geocode_provider": "country_centroid"
          },
          {
            "name": "Groupe SAGAERT",
            "location": "France",
            "is_primary": false,
            "geocode_query": "Groupe SAGAERT, Toulouse, France",
            "lat": 46.2276,
            "lon": 2.2137,
            "geocode_provider": "country_centroid"
          },
          {
            "name": "ASD Textiles",
            "location": "France",
            "is_primary": false,
            "geocode_query": "ASD Textiles, Toulouse, France",
            "lat": 46.2276,
            "lon": 2.2137,
            "geocode_provider": "country_centroid"
          },
          {
            "name": "TELATEX",
            "location": "France",
            "is_primary": false,
            "geocode_query": "TELATEX, Toulouse, France",
            "lat": 46.2276,
            "lon": 2.2137,
            "geocode_provider": "country_centroid"
          }
        ],
        "raw_material": [
          {
            "name": "DuPont de Nemours",
            "location": "USA",
            "is_primary": true,
            "lat": 39.7837304,
            "lon": -100.4458825,
            "geocode_provider": "cache:nominatim",
            "geocode_query": "DuPont de Nemours, United States"
          },
          {
            "name": "Zhejiang Yuxin Textile Co.",
            "location": "Chine",
            "is_primary": false,
            "lat": 35.8617,
            "lon": 104.1954,
            "geocode_provider": "cache:nominatim",
            "geocode_query": "Zhejiang Yuxin Textile Co., China"
          },
          {
            "name": "Ltd.",
            "location": "Chine",
            "is_primary": false,
            "lat": 22.6501198,
            "lon": 114.0591332,
            "geocode_provider": "cache:nominatim",
            "geocode_query": "Ltd., China"
          },
          {
            "name": "Paragon Textiles",
            "location": "Inde",
            "is_primary": false,
            "lat": 20.5937,
            "lon": 78.9629,
            "geocode_provider": "cache:nominatim",
            "geocode_query": "Paragon Textiles, India"
          },
          {
            "name": "Toray",
            "location": "Japon",
            "is_primary": false,
            "lat": 34.977976,
            "lon": 135.8941262,
            "geocode_provider": "cache:nominatim",
            "geocode_query": "Toray, Japan"
          },
          {
            "name": "LATIM",
            "location": "France",
            "is_primary": false,
            "geocode_query": "LATIM, Toulouse, France",
            "lat": 46.2276,
            "lon": 2.2137,
            "geocode_provider": "country_centroid"
          },
          {
            "name": "Tissu Huddersfield",
            "location": "Royaume-Uni",
            "is_primary": false,
            "lat": 55.3781,
            "lon": -3.436,
            "geocode_provider": "cache:nominatim",
            "geocode_query": "Tissu Huddersfield, United Kingdom"
          }
        ],
        "primary_material": []
      },
      "transport": {
        "from_supplier_to_safran": {
          "modes": [
            "Camion"
          ]
        },
        "to_first_transformation": {
          "modes": [
            "Bateau - Camion"
          ]
        },
        "mine_to_refinery": {
          "modes": []
        }
      },
      "market_share_pct": "",
      "mass_kg": 0.0,
      "mass_estimation_method": "no_data_in_source_file"
    },
    {
      "user": "Safran",
      "type": "Sous-ensemble",
      "system": "Manchette acc. Mobile",
      "component": "FRMC55:EU28 polyuréthane flexible traité UL",
      "raw_materials": [
        "Tissus",
        "Aluminium",
        "Polyamide"
      ],
      "materials_estimates": [],
      "material_modeling_refs": {},
      "suppliers": {
        "tier1": [
          {
            "name": "MGR FOAMTEX",
            "location": "Angleterre",
            "is_primary": true,
            "geocode_provider": "cache:nominatim",
            "geocode_query": "MGR Foamtex, Dax House, Wenman Road, Thame OX9 3SE, United Kingdom",
            "lat": 51.739561,
            "lon": -0.966526
          },
          {
            "name": "ACH",
            "location": "France",
            "is_primary": false,
            "lat": 45.6878265,
            "lon": 5.9476989,
            "geocode_provider": "cache:nominatim",
            "geocode_query": "ACH, France"
          },
          {
            "name": "Celso",
            "location": "France",
            "is_primary": false,
            "geocode_query": "Celso SAS, 200 impasse de Fontanilles, ZI de Bressols, 82710 Bressols, France",
            "lat": 46.2276,
            "lon": 2.2137,
            "geocode_provider": "country_centroid"
          }
        ],
        "first_transformation": [
          {
            "name": "Euralliage",
            "location": "France",
            "is_primary": true,
            "geocode_query": "EURALLIAGE, 3 rue des Frères Montgolfier, 95500 Gonesse, France",
            "lat": 46.2276,
            "lon": 2.2137,
            "geocode_provider": "country_centroid"
          },
          {
            "name": "Aluminium France",
            "location": "France",
            "is_primary": false,
            "lat": 47.9949854,
            "lon": 3.7585376,
            "geocode_provider": "cache:nominatim",
            "geocode_query": "Aluminium France, France"
          },
          {
            "name": "Thyssen group",
            "location": "France",
            "is_primary": false,
            "geocode_query": "thyssenkrupp Materials France, ZA Pariwest, 6 Avenue Gutenberg, 78310 Maurepas, France",
            "lat": 46.2276,
            "lon": 2.2137,
            "geocode_provider": "country_centroid"
          },
          {
            "name": "TATA Steel",
            "location": "Inde",
            "is_primary": false,
            "lat": 22.7853607,
            "lon": 86.1994836,
            "geocode_provider": "cache:nominatim",
            "geocode_query": "TATA Steel, India"
          }
        ],
        "raw_material": [
          {
            "name": "DuPont de Nemours",
            "location": "USA",
            "is_primary": true,
            "lat": 39.7837304,
            "lon": -100.4458825,
            "geocode_provider": "cache:nominatim",
            "geocode_query": "DuPont de Nemours, United States"
          },
          {
            "name": "Zhejiang Yuxin Textile Co.",
            "location": "Chine",
            "is_primary": false,
            "lat": 35.8617,
            "lon": 104.1954,
            "geocode_provider": "cache:nominatim",
            "geocode_query": "Zhejiang Yuxin Textile Co., China"
          },
          {
            "name": "Ltd.",
            "location": "Chine",
            "is_primary": false,
            "lat": 22.6501198,
            "lon": 114.0591332,
            "geocode_provider": "cache:nominatim",
            "geocode_query": "Ltd., China"
          },
          {
            "name": "Paragon Textiles",
            "location": "Inde",
            "is_primary": false,
            "lat": 20.5937,
            "lon": 78.9629,
            "geocode_provider": "cache:nominatim",
            "geocode_query": "Paragon Textiles, India"
          },
          {
            "name": "Toray",
            "location": "Japon",
            "is_primary": false,
            "lat": 34.977976,
            "lon": 135.8941262,
            "geocode_provider": "cache:nominatim",
            "geocode_query": "Toray, Japan"
          },
          {
            "name": "LATIM",
            "location": "France",
            "is_primary": false,
            "geocode_query": "LATIM, Toulouse, France",
            "lat": 46.2276,
            "lon": 2.2137,
            "geocode_provider": "country_centroid"
          },
          {
            "name": "Tissu Huddersfield",
            "location": "Royaume-Uni",
            "is_primary": false,
            "lat": 55.3781,
            "lon": -3.436,
            "geocode_provider": "cache:nominatim",
            "geocode_query": "Tissu Huddersfield, United Kingdom"
          },
          {
            "name": "Ensinger",
            "location": "Allemagne",
            "is_primary": false,
            "lat": 48.5010122,
            "lon": 8.8201999,
            "geocode_provider": "cache:nominatim",
            "geocode_query": "Ensinger, Germany"
          },
          {
            "name": "BASF",
            "location": "Allemagne",
            "is_primary": false,
            "lat": 49.5528125,
            "lon": 8.3516349,
            "geocode_provider": "cache:nominatim",
            "geocode_query": "BASF, Germany"
          },
          {
            "name": "Bayer",
            "location": "Allemagne",
            "is_primary": false,
            "lat": 50.9431344,
            "lon": 13.6228032,
            "geocode_provider": "cache:nominatim",
            "geocode_query": "Bayer, Germany"
          },
          {
            "name": "Chalco (Chine avec 39 filiales",
            "location": "China",
            "is_primary": false,
            "geocode_query": "Chalco (Chine avec 39 filiales, Xi'an, China",
            "lat": 35.8617,
            "lon": 104.1954,
            "geocode_provider": "country_centroid"
          },
          {
            "name": "Hindalco (Inde avec 49 sites de production Amérique du Nord",
            "location": "India",
            "is_primary": false,
            "geocode_query": "Hindalco (Inde avec 49 sites de production Amérique du Nord, Bengaluru, India",
            "lat": 20.5937,
            "lon": 78.9629,
            "geocode_provider": "country_centroid"
          },
          {
            "name": "Rio Tinto",
            "location": "Canada",
            "is_primary": false,
            "lat": 48.4180965,
            "lon": -71.0527334,
            "geocode_provider": "cache:nominatim",
            "geocode_query": "Rio Tinto, Canada"
          },
          {
            "name": "Euralliage",
            "location": "France",
            "is_primary": false,
            "geocode_query": "EURALLIAGE, 3 rue des Frères Montgolfier, 95500 Gonesse, France",
            "lat": 46.2276,
            "lon": 2.2137,
            "geocode_provider": "country_centroid"
          },
          {
            "name": "TATA Steel",
            "location": "Inde",
            "is_primary": false,
            "lat": 22.7853607,
            "lon": 86.1994836,
            "geocode_provider": "cache:nominatim",
            "geocode_query": "TATA Steel, India"
          }
        ],
        "primary_material": []
      },
      "transport": {
        "from_supplier_to_safran": {
          "modes": [
            "Camion"
          ]
        },
        "to_first_transformation": {
          "modes": [
            "Bateau"
          ]
        },
        "mine_to_refinery": {
          "modes": []
        }
      },
      "market_share_pct": "",
      "mass_kg": 0.0,
      "mass_estimation_method": "no_data_in_source_file"
    },
    {
      "user": "",
      "type": "",
      "system": "",
      "component": "",
      "raw_materials": [],
      "materials_estimates": [],
      "material_modeling_refs": {},
      "suppliers": {
        "tier1": [],
        "first_transformation": [],
        "raw_material": [],
        "primary_material": []
      },
      "transport": {
        "from_supplier_to_safran": {
          "modes": []
        },
        "to_first_transformation": {
          "modes": []
        },
        "mine_to_refinery": {
          "modes": []
        }
      },
      "market_share_pct": "",
      "mass_kg": 0.0,
      "mass_estimation_method": "no_data_in_source_file"
    },
    {
      "user": "Safran",
      "type": "Sous-ensemble",
      "system": "Accoudoir allée",
      "component": "30NCD6 (nickel-chrome- molibdene)",
      "raw_materials": [],
      "materials_estimates": [],
      "material_modeling_refs": {},
      "suppliers": {
        "tier1": [
          {
            "name": "SUMPAR (France)",
            "location": "France",
            "is_primary": true,
            "lat": 49.3892868,
            "lon": 1.2085766,
            "geocode_provider": "cache:nominatim",
            "geocode_query": "SUMPAR (France), France"
          },
          {
            "name": "segnere aero SAS (France)",
            "location": "France",
            "is_primary": false,
            "geocode_query": "SEGNERE, ZI du Toulicou, 65100 Adé, France",
            "lat": 46.2276,
            "lon": 2.2137,
            "geocode_provider": "country_centroid"
          },
          {
            "name": "Lauak Group (France) (France)",
            "location": "France",
            "is_primary": false,
            "geocode_query": "Groupe LAUAK, 2245 Route de Minhotz, 64240 Hasparren, France",
            "country": "France",
            "lat": 46.2276,
            "lon": 2.2137,
            "geocode_provider": "country_centroid"
          }
        ],
        "first_transformation": [],
        "raw_material": [],
        "primary_material": []
      },
      "transport": {
        "from_supplier_to_safran": {
          "modes": [
            "Camion"
          ]
        },
        "to_first_transformation": {
          "modes": []
        },
        "mine_to_refinery": {
          "modes": []
        }
      },
      "market_share_pct": "",
      "mass_kg": 0.0,
      "mass_estimation_method": "no_data_in_source_file"
    },
    {
      "user": "Safran",
      "type": "Sous-ensemble",
      "system": "Ens. Palette optimisée",
      "component": "35NC6 (nickel-chrome)",
      "raw_materials": [],
      "materials_estimates": [],
      "material_modeling_refs": {},
      "suppliers": {
        "tier1": [
          {
            "name": "SUMPAR (France)",
            "location": "France",
            "is_primary": true,
            "lat": 49.3892868,
            "lon": 1.2085766,
            "geocode_provider": "cache:nominatim",
            "geocode_query": "SUMPAR (France), France"
          },
          {
            "name": "segnere aero SAS (France)",
            "location": "France",
            "is_primary": false,
            "geocode_query": "SEGNERE, ZI du Toulicou, 65100 Adé, France",
            "lat": 46.2276,
            "lon": 2.2137,
            "geocode_provider": "country_centroid"
          },
          {
            "name": "Lauak Group (France) (France)",
            "location": "France",
            "is_primary": false,
            "geocode_query": "Groupe LAUAK, 2245 Route de Minhotz, 64240 Hasparren, France",
            "country": "France",
            "lat": 46.2276,
            "lon": 2.2137,
            "geocode_provider": "country_centroid"
          }
        ],
        "first_transformation": [],
        "raw_material": [],
        "primary_material": []
      },
      "transport": {
        "from_supplier_to_safran": {
          "modes": [
            "Camion"
          ]
        },
        "to_first_transformation": {
          "modes": []
        },
        "mine_to_refinery": {
          "modes": []
        }
      },
      "market_share_pct": "",
      "mass_kg": 0.0,
      "mass_estimation_method": "no_data_in_source_file"
    },
    {
      "user": "Safran",
      "type": "Sous-ensemble",
      "system": "Ens. Equipements latéraux",
      "component": "acier",
      "raw_materials": [],
      "materials_estimates": [],
      "material_modeling_refs": {},
      "suppliers": {
        "tier1": [
          {
            "name": "ESPACE (France)",
            "location": "France",
            "is_primary": true,
            "lat": 44.7776436,
            "lon": -0.6475364,
            "geocode_provider": "cache:nominatim",
            "geocode_query": "ESPACE (France), France"
          },
          {
            "name": "Lauak Group (France)",
            "location": "France",
            "is_primary": false,
            "geocode_query": "Groupe LAUAK, 2245 Route de Minhotz, 64240 Hasparren, France",
            "country": "France",
            "lat": 46.2276,
            "lon": 2.2137,
            "geocode_provider": "country_centroid"
          },
          {
            "name": "GATTEFIN (France) (France)",
            "location": "France",
            "is_primary": false,
            "lat": 47.1426393,
            "lon": 2.2372016,
            "geocode_provider": "cache:nominatim",
            "geocode_query": "GATTEFIN (France) (France), France"
          }
        ],
        "first_transformation": [],
        "raw_material": [],
        "primary_material": []
      },
      "transport": {
        "from_supplier_to_safran": {
          "modes": [
            "Camion"
          ]
        },
        "to_first_transformation": {
          "modes": []
        },
        "mine_to_refinery": {
          "modes": []
        }
      },
      "market_share_pct": "",
      "mass_kg": 0.0,
      "mass_estimation_method": "no_data_in_source_file"
    },
    {
      "user": "Safran",
      "type": "Sous-ensemble",
      "system": "Stowage assemblé avec porte",
      "component": "35NC6 (nickel-chrome)",
      "raw_materials": [],
      "materials_estimates": [],
      "material_modeling_refs": {},
      "suppliers": {
        "tier1": [
          {
            "name": "GATTEFIN (France)",
            "location": "France",
            "is_primary": true,
            "lat": 47.1426393,
            "lon": 2.2372016,
            "geocode_provider": "cache:nominatim",
            "geocode_query": "GATTEFIN (France), France"
          },
          {
            "name": "SUMPAR (France)",
            "location": "France",
            "is_primary": false,
            "lat": 49.3892868,
            "lon": 1.2085766,
            "geocode_provider": "cache:nominatim",
            "geocode_query": "SUMPAR (France), France"
          },
          {
            "name": "Lauak Group (France) (France)",
            "location": "France",
            "is_primary": false,
            "geocode_query": "Groupe LAUAK, 2245 Route de Minhotz, 64240 Hasparren, France",
            "country": "France",
            "lat": 46.2276,
            "lon": 2.2137,
            "geocode_provider": "country_centroid"
          }
        ],
        "first_transformation": [],
        "raw_material": [],
        "primary_material": []
      },
      "transport": {
        "from_supplier_to_safran": {
          "modes": [
            "Camion"
          ]
        },
        "to_first_transformation": {
          "modes": []
        },
        "mine_to_refinery": {
          "modes": []
        }
      },
      "market_share_pct": "",
      "mass_kg": 0.0,
      "mass_estimation_method": "no_data_in_source_file"
    },
    {
      "user": "Safran",
      "type": "Sous-ensemble",
      "system": "Accoudoir allée",
      "component": "A2017 - Aluminium",
      "raw_materials": [],
      "materials_estimates": [],
      "material_modeling_refs": {},
      "suppliers": {
        "tier1": [
          {
            "name": "SUMPAR (France)",
            "location": "France",
            "is_primary": true,
            "lat": 49.3892868,
            "lon": 1.2085766,
            "geocode_provider": "cache:nominatim",
            "geocode_query": "SUMPAR (France), France"
          },
          {
            "name": "segnere aero SAS (France)",
            "location": "France",
            "is_primary": false,
            "geocode_query": "SEGNERE, ZI du Toulicou, 65100 Adé, France",
            "lat": 46.2276,
            "lon": 2.2137,
            "geocode_provider": "country_centroid"
          },
          {
            "name": "Figeac Aéro (France) (France)",
            "location": "France",
            "is_primary": false,
            "lat": 44.590773,
            "lon": 2.0333182,
            "geocode_provider": "cache:nominatim",
            "geocode_query": "Figeac Aéro (France) (France), France"
          }
        ],
        "first_transformation": [],
        "raw_material": [],
        "primary_material": []
      },
      "transport": {
        "from_supplier_to_safran": {
          "modes": [
            "Camion"
          ]
        },
        "to_first_transformation": {
          "modes": []
        },
        "mine_to_refinery": {
          "modes": []
        }
      },
      "market_share_pct": "",
      "mass_kg": 0.0,
      "mass_estimation_method": "no_data_in_source_file"
    },
    {
      "user": "Safran",
      "type": "Sous-ensemble",
      "system": "Ens. Stowage latéral",
      "component": "A2017 - Aluminium",
      "raw_materials": [],
      "materials_estimates": [],
      "material_modeling_refs": {},
      "suppliers": {
        "tier1": [
          {
            "name": "MGA Villeneuve St Lot (France)",
            "location": "France",
            "is_primary": true,
            "geocode_query": "MGA, ZI La Barbière, Rue Nicolas Leblanc, 47300 Villeneuve-sur-Lot, France",
            "lat": 46.2276,
            "lon": 2.2137,
            "geocode_provider": "country_centroid"
          },
          {
            "name": "GATTEFIN (France)",
            "location": "France",
            "is_primary": false,
            "lat": 47.1426393,
            "lon": 2.2372016,
            "geocode_provider": "cache:nominatim",
            "geocode_query": "GATTEFIN (France), France"
          },
          {
            "name": "Figeac Aéro (France) (France)",
            "location": "France",
            "is_primary": false,
            "lat": 44.590773,
            "lon": 2.0333182,
            "geocode_provider": "cache:nominatim",
            "geocode_query": "Figeac Aéro (France) (France), France"
          }
        ],
        "first_transformation": [],
        "raw_material": [],
        "primary_material": []
      },
      "transport": {
        "from_supplier_to_safran": {
          "modes": [
            "Camion"
          ]
        },
        "to_first_transformation": {
          "modes": []
        },
        "mine_to_refinery": {
          "modes": []
        }
      },
      "market_share_pct": "",
      "mass_kg": 0.0,
      "mass_estimation_method": "no_data_in_source_file"
    },
    {
      "user": "Safran",
      "type": "Sous-ensemble",
      "system": "Ens. Palette optimisée",
      "component": "A2017 - Aluminium",
      "raw_materials": [],
      "materials_estimates": [],
      "material_modeling_refs": {},
      "suppliers": {
        "tier1": [
          {
            "name": "SUMPAR (France)",
            "location": "France",
            "is_primary": true,
            "lat": 49.3892868,
            "lon": 1.2085766,
            "geocode_provider": "cache:nominatim",
            "geocode_query": "SUMPAR (France), France"
          },
          {
            "name": "segnere aero SAS (France)",
            "location": "France",
            "is_primary": false,
            "geocode_query": "SEGNERE, ZI du Toulicou, 65100 Adé, France",
            "lat": 46.2276,
            "lon": 2.2137,
            "geocode_provider": "country_centroid"
          },
          {
            "name": "Figeac Aéro (France) (France)",
            "location": "France",
            "is_primary": false,
            "lat": 44.590773,
            "lon": 2.0333182,
            "geocode_provider": "cache:nominatim",
            "geocode_query": "Figeac Aéro (France) (France), France"
          }
        ],
        "first_transformation": [],
        "raw_material": [],
        "primary_material": []
      },
      "transport": {
        "from_supplier_to_safran": {
          "modes": [
            "Camion"
          ]
        },
        "to_first_transformation": {
          "modes": []
        },
        "mine_to_refinery": {
          "modes": []
        }
      },
      "market_share_pct": "",
      "mass_kg": 0.0,
      "mass_estimation_method": "no_data_in_source_file"
    },
    {
      "user": "Safran",
      "type": "Sous-ensemble",
      "system": "Ens. Tablette cocktail",
      "component": "A2017 - Aluminium",
      "raw_materials": [],
      "materials_estimates": [],
      "material_modeling_refs": {},
      "suppliers": {
        "tier1": [
          {
            "name": "MGA Villeneuve St Lot (France)",
            "location": "France",
            "is_primary": true,
            "geocode_query": "MGA, ZI La Barbière, Rue Nicolas Leblanc, 47300 Villeneuve-sur-Lot, France",
            "lat": 46.2276,
            "lon": 2.2137,
            "geocode_provider": "country_centroid"
          },
          {
            "name": "GATTEFIN (France)",
            "location": "France",
            "is_primary": false,
            "lat": 47.1426393,
            "lon": 2.2372016,
            "geocode_provider": "cache:nominatim",
            "geocode_query": "GATTEFIN (France), France"
          },
          {
            "name": "SUMPAR (France)",
            "location": "France",
            "is_primary": false,
            "lat": 49.3892868,
            "lon": 1.2085766,
            "geocode_provider": "cache:nominatim",
            "geocode_query": "SUMPAR (France), France"
          },
          {
            "name": "Lauak Group (France)",
            "location": "France",
            "is_primary": false,
            "geocode_query": "Groupe LAUAK, 2245 Route de Minhotz, 64240 Hasparren, France",
            "country": "France",
            "lat": 46.2276,
            "lon": 2.2137,
            "geocode_provider": "country_centroid"
          },
          {
            "name": "Figeac Aéro (France)",
            "location": "France",
            "is_primary": false,
            "lat": 44.590773,
            "lon": 2.0333182,
            "geocode_provider": "cache:nominatim",
            "geocode_query": "Figeac Aéro (France), France"
          },
          {
            "name": "Jamco Corp (Japon) (France)",
            "location": "France",
            "is_primary": false,
            "geocode_query": "Niigata JAMCO Corporation, 341-1 Kamitsubone, Tsubone, Murakami-shi, Niigata 958-0822, Japan",
            "country": "Japan",
            "lat": 36.2048,
            "lon": 138.2529,
            "geocode_provider": "country_centroid"
          }
        ],
        "first_transformation": [],
        "raw_material": [],
        "primary_material": []
      },
      "transport": {
        "from_supplier_to_safran": {
          "modes": [
            "Camion"
          ]
        },
        "to_first_transformation": {
          "modes": []
        },
        "mine_to_refinery": {
          "modes": []
        }
      },
      "market_share_pct": "",
      "mass_kg": 0.0,
      "mass_estimation_method": "no_data_in_source_file"
    },
    {
      "user": "Safran",
      "type": "Sous-ensemble",
      "system": "Ens. Tablette repas",
      "component": "A2017 - Aluminium",
      "raw_materials": [],
      "materials_estimates": [],
      "material_modeling_refs": {},
      "suppliers": {
        "tier1": [
          {
            "name": "GATTEFIN (France)",
            "location": "France",
            "is_primary": true,
            "lat": 47.1426393,
            "lon": 2.2372016,
            "geocode_provider": "cache:nominatim",
            "geocode_query": "GATTEFIN (France), France"
          },
          {
            "name": "SUMPAR (France)",
            "location": "France",
            "is_primary": false,
            "lat": 49.3892868,
            "lon": 1.2085766,
            "geocode_provider": "cache:nominatim",
            "geocode_query": "SUMPAR (France), France"
          },
          {
            "name": "Figeac Aéro (France)",
            "location": "France",
            "is_primary": false,
            "lat": 44.590773,
            "lon": 2.0333182,
            "geocode_provider": "cache:nominatim",
            "geocode_query": "Figeac Aéro (France), France"
          },
          {
            "name": "Jamco (Japon) (France)",
            "location": "France",
            "is_primary": false,
            "geocode_query": "Niigata JAMCO Corporation, 341-1 Kamitsubone, Tsubone, Murakami-shi, Niigata 958-0822, Japan",
            "country": "Japan",
            "lat": 36.2048,
            "lon": 138.2529,
            "geocode_provider": "country_centroid"
          }
        ],
        "first_transformation": [],
        "raw_material": [],
        "primary_material": []
      },
      "transport": {
        "from_supplier_to_safran": {
          "modes": [
            "Camion"
          ]
        },
        "to_first_transformation": {
          "modes": []
        },
        "mine_to_refinery": {
          "modes": []
        }
      },
      "market_share_pct": "",
      "mass_kg": 0.0,
      "mass_estimation_method": "no_data_in_source_file"
    },
    {
      "user": "Safran",
      "type": "Sous-ensemble",
      "system": "Ens. Têtière",
      "component": "A2017 - Aluminium",
      "raw_materials": [],
      "materials_estimates": [],
      "material_modeling_refs": {},
      "suppliers": {
        "tier1": [
          {
            "name": "GATTEFIN (France)",
            "location": "France",
            "is_primary": true,
            "lat": 47.1426393,
            "lon": 2.2372016,
            "geocode_provider": "cache:nominatim",
            "geocode_query": "GATTEFIN (France), France"
          },
          {
            "name": "SUMPAR (France)",
            "location": "France",
            "is_primary": false,
            "lat": 49.3892868,
            "lon": 1.2085766,
            "geocode_provider": "cache:nominatim",
            "geocode_query": "SUMPAR (France), France"
          },
          {
            "name": "Lauak Group (France)",
            "location": "France",
            "is_primary": false,
            "geocode_query": "Groupe LAUAK, 2245 Route de Minhotz, 64240 Hasparren, France",
            "country": "France",
            "lat": 46.2276,
            "lon": 2.2137,
            "geocode_provider": "country_centroid"
          },
          {
            "name": "Figeac Aéro (France) (France)",
            "location": "France",
            "is_primary": false,
            "lat": 44.590773,
            "lon": 2.0333182,
            "geocode_provider": "cache:nominatim",
            "geocode_query": "Figeac Aéro (France) (France), France"
          }
        ],
        "first_transformation": [],
        "raw_material": [],
        "primary_material": []
      },
      "transport": {
        "from_supplier_to_safran": {
          "modes": [
            "Camion"
          ]
        },
        "to_first_transformation": {
          "modes": []
        },
        "mine_to_refinery": {
          "modes": []
        }
      },
      "market_share_pct": "",
      "mass_kg": 0.0,
      "mass_estimation_method": "no_data_in_source_file"
    },